[{"name":"Kochani","street1":"Boris Trajkovski No.4 ","city":"Vinica","zip":"2311","phone":"033\/361-222","workingperiod":"Monday-Fiday: 08:00-16:00 - Saturday: 08:00-16:00","typepost":"Office of posting","latitude":"41.885266","longitude":"22.504493"},{"name":"Skopje 1","street1":"Kej 13 Noemvri No.3-b GTC lok.236","city":"Skopje","zip":"1106","phone":"02\/ 3133-239","workingperiod":"Monday-Friday: 07:00-20:00 - Saturday: 08:00-15:00","typepost":"Office of posting","latitude":"41.99479","longitude":"21.434547"},{"name":"Bitola","street1":"Ljubojno","city":"Ljubojno","zip":"7318","phone":"047\/ 482-868","workingperiod":"Monday-Friday: 08:00-15:00 - Saturday: 08:00-13:00","typepost":"Delivery office","latitude":"40.893326","longitude":"21.140158"},{"name":"Bitola","street1":"Krani","city":"Krani","zip":"7317","phone":"047\/ 483-195","workingperiod":"Monday-Friday: 08:00-15:00 - Saturday: 08:00-13:00","typepost":"Delivery office","latitude":"40.939778","longitude":"21.108293"},{"name":"Bitola","street1":"Carev Dvor","city":"Carev Dvor","zip":"7315","phone":"047\/ 489-511","workingperiod":"Monday-Friday: 08:00-15:00 - Saturday: 08:00-13:00","typepost":"Delivery office","latitude":"41.042613","longitude":"21.007129"},{"name":"Strumica","street1":"Konche","city":"Konche","zip":"2424","phone":"032\/ 649-345","workingperiod":"Monday-Friday: 07:00-14:00 - Saturday: 07:00-12:00","typepost":"Delivery office","latitude":"41.494946","longitude":"22.384235"},{"name":"Strumica","street1":"Podaresh","city":"Podaresh","zip":"2423","phone":"032\/ 641-010","workingperiod":"Monday-Friday: 07:00-14:00 - Saturday: 07:00-12:00","typepost":"Delivery office","latitude":"41.614632","longitude":"22.542377"},{"name":"Strumica","street1":"Samoilova bb","city":"Radovish","zip":"2421","phone":"032\/ 635-413","workingperiod":"Monday-Friday: 08:30-16:30","typepost":"Office of posting","latitude":"41.634382","longitude":"22.464472"},{"name":"Shtip","street1":"Marshal Tito No.193, Zletovo","city":"Zletovo","zip":"2212","phone":"032\/ 495-225","workingperiod":"Monday-Friday: 07:00-13:30 - Saturday: 07:00-13:30","typepost":"Delivery office","latitude":"41.988298","longitude":"22.234735"},{"name":"Prilep","street1":"Debreshte","city":"Debreshte","zip":"7537","phone":"048\/ 474-100","workingperiod":"Monday-Friday: 08:00-15:00 - Saturday: 08:00-13:00","typepost":"Delivery office","latitude":"41.479063","longitude":"21.316542"},{"name":"Prilep","street1":"Vogjani","city":"Vogjani","zip":"7525","phone":"048\/ 404-334","workingperiod":"Monday-Friday: 08:00-15:00 - Saturday: 08:00-13:00","typepost":"Delivery office","latitude":"41.279941","longitude":"21.337715"},{"name":"Prilep","street1":"Krivogashtani","city":"Krivogashtani","zip":"7524","phone":"048\/ 404-333","workingperiod":"Monday-Friday: 08:00-15:00 - Saturday: 08:00-13:00","typepost":"Delivery office","latitude":"41.337018","longitude":"21.331697"},{"name":"Prilep","street1":"Crnilishte","city":"Crnilishte","zip":"7516","phone":"048\/ 459-113","workingperiod":"Monday-Friday: 08:00-15:00 - Saturday: 08:00-13:00","typepost":"Delivery office","latitude":"41.53042","longitude":"21.413576"},{"name":"Prilep","street1":"Goce Delchev bb","city":"Prilep","zip":"7513","phone":"048\/ 404-324","workingperiod":"Monday-Friday: 08:00-15:00 - Saturday: 08:00-15:00","typepost":"Office of posting","latitude":"41.343673","longitude":"21.548205"},{"name":"Prilep","street1":"Topolchani","city":"Topolchani","zip":"7512","phone":"048\/ 480-310","workingperiod":"Monday-Friday: 07:00-14:00 - Saturday: 07:00-12:00","typepost":"Delivery office","latitude":"41.228128","longitude":"21.431115"},{"name":"Prilep","street1":"Oktomvriska bb","city":"Prilep","zip":"7510","phone":"048\/ 404-321","workingperiod":"Monday-Friday: 07:00-19:00 - Saturday: 07:00-19:00","typepost":"Office of posting","latitude":"41.343681","longitude":"21.567127"},{"name":"Prilep","street1":"Lazhani","city":"Lazhani","zip":"7507","phone":"048\/ 473-022","workingperiod":"Monday-Friday: 08:00-15:00 - Saturday: 08:00-13:00","typepost":"Delivery office","latitude":"41.442216","longitude":"21.31432"},{"name":"Prilep","street1":"Kostinci","city":"Kostinci","zip":"7505","phone":"048\/ 404-330","workingperiod":"Monday-Friday: 08:00-15:00 - Saturday: 08:00-13:00","typepost":"Delivery office","latitude":"41.502335","longitude":"21.407396"},{"name":"Prilep","street1":"Dolneni","city":"Dolneni","zip":"7504","phone":"048\/ 404-329","workingperiod":"Monday-Friday: 08:00-15:00 - Saturday: 08:00-13:00","typepost":"Delivery office","latitude":"41.424678","longitude":"21.45421"},{"name":"Prilep","street1":"Vojvodinska bb, Tochila","city":"Prilep","zip":"7503","phone":"048\/ 404-323","workingperiod":"Monday-Friday: 08:00-15:00 - Saturday: 08:00-13:00","typepost":"Office of posting","latitude":"41.349732","longitude":"21.53828"},{"name":"Ohrid","street1":"Belchishta","city":"Belchishta","zip":"6344","phone":"046\/ 286-000","workingperiod":"Monday-Friday: 08:00-15:00 - Saturday: 08:00-13:00","typepost":"Delivery office","latitude":"41.304112","longitude":"20.83007"},{"name":"Ohrid","street1":"Mesheishta","city":"Mesheishta","zip":"6342","phone":"046\/ 281-222","workingperiod":"Monday-Friday: 08:00-15:00 - Saturday: 08:00-13:00","typepost":"Delivery office","latitude":"41.239051","longitude":"20.774988"},{"name":"Ohrid","street1":"Trebenishta","city":"Trebenishta","zip":"6341","phone":"046\/ 281-010","workingperiod":"Monday-Friday: 08:00-15:00 - Saturday: 08:00-13:00","typepost":"Delivery office","latitude":"41.207558","longitude":"20.752652"},{"name":"Ohrid","street1":"\u0420\u045eode Lupevski No.2","city":"Leskoec","zip":"6306","phone":"046\/ 257-110","workingperiod":"Monday-Friday: 08:00-15:00 - Saturday: 08:00-13:00","typepost":"Delivery office","latitude":"41.1502818","longitude":"20.8279516"},{"name":"Ohrid","street1":"Goce Delchev No.233 - A","city":"Ohrid","zip":"6105","phone":"046\/ 270-047","workingperiod":"Monday-Friday: 08:00-15:00 - Saturday: 08:00-13:00","typepost":"Office of posting","latitude":"41.12255","longitude":"20.784303"},{"name":"Ohrid","street1":"Biljanini izvori bb","city":"Ohrid","zip":"6102","phone":"046\/ 231-260","workingperiod":"Monday-Friday: 07:00-19:00 - Saturday: 07:00-19:00","typepost":"Office of posting","latitude":"41.112352","longitude":"20.809329"},{"name":"Ohrid","street1":"blvd. Makedonski prosvetiteli No.6","city":"Ohrid","zip":"6000","phone":"046\/ 273-157","workingperiod":"Monday-Friday: 07:00-19:00 - Saturday: 07:00-19:00","typepost":"Delivery office","latitude":"41.113742","longitude":"20.800925"},{"name":"Kavadarci","street1":"Dolni Disan","city":"Dolni Disan","zip":"1443","phone":"043\/ 369-000","workingperiod":"Monday-Friday: 07:00-14:00 - Saturday: 07:00-12:00","typepost":"Delivery office","latitude":"41.429102","longitude":"22.095175"},{"name":"Kavadarci","street1":"Pepelishte","city":"Pepelishte","zip":"1441","phone":"043\/ 368-000","workingperiod":"Monday-Friday: 07:00-14:00 - Saturday: 07:00-12:00","typepost":"Delivery office","latitude":"41.518942","longitude":"22.128355"},{"name":"Kichevo","street1":"Dvorci","city":"Dvorci","zip":"6539","phone":"045\/ 287-222","workingperiod":"Monday-Friday: 08:00-15:00 - Saturday: 08:00-13:00","typepost":"Delivery office","latitude":"41.464715","longitude":"21.092699"},{"name":"Kichevo","street1":"Samokov","city":"Samokov","zip":"6535","phone":"045\/ 278-222","workingperiod":"Monday-Friday: 08:00-15:00 - Saturday: 08:00-13:00","typepost":"Delivery office","latitude":"41.680493","longitude":"21.150398"},{"name":"Kichevo","street1":"Dolni Manastirec","city":"Dolni Manastirec","zip":"6533","phone":"045\/ 279-222","workingperiod":"Monday-Friday: 08:00-15:00 - Saturday: 08:00-13:00","typepost":"Delivery office","latitude":"41.614752","longitude":"21.211154"},{"name":"Kumanovo","street1":"Bedinje","city":"Bedinje","zip":"1329","phone":"031\/451-904","workingperiod":"Monday-Friday: 09:00-16:00 - Saturday: 08:00-13:00","typepost":"Office of posting","latitude":"42.141257","longitude":"21.697014"},{"name":"Kumanovo","street1":"Novo Selo","city":"Novo Selo","zip":"1327","phone":"031\/ 471-109","workingperiod":"Monday-Friday: 07:00-14:00 - Saturday: 07:00-12:00","typepost":"Delivery office","latitude":"42.094862","longitude":"21.631523"},{"name":"Kumanovo","street1":"Lojane","city":"Lojane","zip":"1326","phone":"031\/ 461-333","workingperiod":"Monday-Friday: 08:00-14:00 - Saturday: 08:00-14:00","typepost":"Delivery office","latitude":"42.233334","longitude":"21.664996"},{"name":"Kumanovo","street1":"Slupchane","city":"Slupchane","zip":"1325","phone":"031\/ 462-999","workingperiod":"Monday-Friday: 07:00-14:00 - Saturday: 07:00-12:00","typepost":"Delivery office","latitude":"42.173334","longitude":"21.627773"},{"name":"Kumanovo","street1":"Vaksince","city":"Vaksince","zip":"1324","phone":"031\/ 461-444","workingperiod":"Monday-Friday: 07:00-14:00 - Saturday: 07:00-12:00","typepost":"Delivery office","latitude":"42.206116","longitude":"21.663047"},{"name":"Kumanovo","street1":"Pchinja","city":"Pchinja","zip":"1323","phone":"031\/ 493-001","workingperiod":"Monday-Friday: 07:00-14:00 - Saturday: 07:00-12:00","typepost":"Delivery office","latitude":"42.039494","longitude":"21.74961"},{"name":"Kumanovo","street1":"Romanovce","city":"Romanovce","zip":"1322","phone":"031\/ 465-222","workingperiod":"Monday-Friday: 07:00-14:00 - Saturday: 07:00-12:00","typepost":"Delivery office","latitude":"42.09002","longitude":"21.692591"},{"name":"Kumanovo","street1":"Cherkezi","city":"Cherkezi","zip":"1317","phone":"031\/ 427-860","workingperiod":"Monday-Friday: 07:00-14:00 - Saturday: 07:00-12:00","typepost":"Delivery office","latitude":"42.125699","longitude":"21.683554"},{"name":"Kumanovo","street1":"Rankovce","city":"Rankovce","zip":"1316","phone":"031\/ 380-222","workingperiod":"Monday-Friday: 08:00-15:00 - Saturday: 08:00-13:00","typepost":"Delivery office","latitude":"42.16862","longitude":"22.116552"},{"name":"Kumanovo","street1":"Otlja","city":"Otlja","zip":"1315","phone":"031\/ 471-333","workingperiod":"Monday-Friday: 07:00-14:00 - Saturday: 07:00-12:00","typepost":"Delivery office","latitude":"42.144224","longitude":"21.587793"},{"name":"Kumanovo","street1":"Kozjachka bb","city":"Dobroshane","zip":"1313","phone":"031\/ 451-222","workingperiod":"Monday-Friday: 07:00-14:00 - Saturday: 08:00-12:00","typepost":"Office of posting","latitude":"42.114235","longitude":"21.747048"},{"name":"Kumanovo","street1":"Mlado Nagorichane","city":"Mlado Nagorichane","zip":"1312","phone":"031\/ 497-222","workingperiod":"Monday-Friday: 07:00-14:00 - Saturday: 07:00-13:00","typepost":"Delivery office","latitude":"42.167953","longitude":"21.817512"},{"name":"Kumanovo","street1":"Teofan Ekonomov No.53","city":"Kumanovo","zip":"1311","phone":"031\/ 426-234","workingperiod":"Monday-Friday: 07:00-19:30 - Saturday: 07:00-19:30","typepost":"Delivery office","latitude":"42.122852","longitude":"21.732796"},{"name":"Kumanovo","street1":"Veselin Maslesha No.48","city":"Kumanovo","zip":"1310","phone":"031\/ 445-550","workingperiod":"Monday-Friday: 07:00-19:00 - Saturday: 07:00-19:00","typepost":"Delivery office","latitude":"42.140052","longitude":"21.735194"},{"name":"Kumanovo","street1":"Gradishte","city":"Gradishte","zip":"1309","phone":"031\/ 464-888","workingperiod":"Monday-Friday: 07:00-14:00 - Saturday: 07:00-12:00","typepost":"Delivery office","latitude":"42.022445","longitude":"21.886553"},{"name":"Kumanovo","street1":"Tabanovce","city":"Tabanovce","zip":"1308","phone":"031\/ 467-222","workingperiod":"Monday-Friday: 07:00-14:00 - Saturday: 07:00-12:00","typepost":"Delivery office","latitude":"42.210593","longitude":"21.715372"},{"name":"Kumanovo","street1":"Lipkovo","city":"Lipkovo","zip":"1307","phone":"031\/ 462-222","workingperiod":"Monday-Friday: 09:00-16:00 - Saturday: 07:00-12:00","typepost":"Delivery office","latitude":"42.1572","longitude":"21.58601"},{"name":"Kumanovo","street1":"Matejche","city":"Matejche","zip":"1306","phone":"031\/ 471-222","workingperiod":"Monday-Friday: 07:00-14:00 - Saturday: 07:00-12:00","typepost":"Delivery office","latitude":"42.125558","longitude":"21.597777"},{"name":"Kumanovo","street1":"Orashac","city":"Orashac","zip":"1305","phone":"031\/ 469-115","workingperiod":"Monday-Friday: 08:00-15:00 - Saturday: 08:00-14:00","typepost":"Delivery office","latitude":"42.064221","longitude":"21.799815"},{"name":"Kumanovo","street1":"Klechevce","city":"Klechevce","zip":"1304","phone":"031\/ 476-222","workingperiod":"Monday-Friday: 07:00-14:00 - Saturday: 07:00-12:00","typepost":"Delivery office","latitude":"42.116241","longitude":"21.851857"},{"name":"Kumanovo","street1":"Staro Nagorichane","city":"Staro Nagorichane","zip":"1303","phone":"031\/ 495-222","workingperiod":"Monday-Friday: 07:00-14:00 - Saturday: 07:00-12:00","typepost":"Delivery office","latitude":"42.199617","longitude":"21.829936"},{"name":"Kumanovo","street1":"3-ta Makedonska udarna brigada No.27","city":"Kumanovo","zip":"1301","phone":"031\/ 413-902","workingperiod":"Monday-Friday: 07:00-19:30 - Saturday: 07:00-19:30","typepost":"Office of posting","latitude":"42.1332859","longitude":"21.7124589"},{"name":"Kumanovo","street1":"Zhidilovo","city":"Zhidilovo","zip":"1335","phone":"031\/ 386-222","workingperiod":"Monday-Friday: 08:00-15:00 - Saturday: 08:00-13:00","typepost":"Delivery office","latitude":"42.22369","longitude":"22.397399"},{"name":"Kumanovo","street1":"Mozhdivnjak","city":"Mozhdivnjak","zip":"1333","phone":"031\/ 385-222","workingperiod":"Monday-Friday: 08:00-15:00 - Saturday: 08:00-13:00","typepost":"Delivery office","latitude":"42.160487","longitude":"22.246031"},{"name":"Kumanovo","street1":"Petralica","city":"Petralica","zip":"1332","phone":"031\/ 383-222","workingperiod":"Monday-Friday: 08:00-15:00 - Saturday: 08:00-13:00","typepost":"Delivery office","latitude":"42.212246","longitude":"22.182654"},{"name":"Kumanovo","street1":"Stracin","city":"Stracin","zip":"1361","phone":"031\/ 491-222","workingperiod":"Monday-Friday: 08:00-15:00 - Saturday: 08:00-12:00","typepost":"Delivery office","latitude":"42.151101","longitude":"22.032231"},{"name":"Kochani","street1":"Kosta Racin bb","city":"Cheshinovo","zip":"2333","phone":"033\/ 355-222","workingperiod":"Monday-Friday: 07:00-14:00 - Saturday: 07:00-12:00","typepost":"Delivery office","latitude":"41.868946","longitude":"22.286235"},{"name":"Kochani","street1":"Dimitar Mitev No.2","city":"Gorni Podlog","zip":"2307","phone":"033\/ 291-001","workingperiod":"Monday-Friday: 07:00-14:00 - Saturday: 07:00-12:00","typepost":"Delivery office","latitude":"41.887558","longitude":"22.381889"},{"name":"Kochani","street1":"AVNOJ No.1","city":"Zrnovci","zip":"2305","phone":"033\/ 353-411","workingperiod":"Monday-Friday: 07:00-14:00 - Saturday: 07:00-12:00","typepost":"Delivery office","latitude":"41.855276","longitude":"22.444476"},{"name":"Kochani","street1":"Makedonska No.1","city":"Kochani","zip":"2303","phone":"033\/ 272-966","workingperiod":"Monday-Friday: 07:30-14:30 - Saturday: 07:30-12:30","typepost":"Office of posting","latitude":"41.914766","longitude":"22.424388"},{"name":"Kochani","street1":"Iskra No.1","city":"Orizari","zip":"2302","phone":"033\/ 294-673","workingperiod":"Monday-Friday: 07:00-14:00 - Saturday: 07:00-12:00","typepost":"Delivery office","latitude":"41.920631","longitude":"22.449143"},{"name":"Kochani","street1":"Marshal Tito bb","city":"Obleshevo","zip":"2301","phone":"033\/ 351-585","workingperiod":"Monday-Friday: 07:00-14:00 - Saturday: 07:00-12:00","typepost":"Delivery office","latitude":"41.881811","longitude":"22.332368"},{"name":"Kichevo","street1":"Strelci","city":"Strelci","zip":"6262","phone":"045\/ 256-001","workingperiod":"Monday-Friday: 08:00-15:00 - Saturday: 08:00-13:00","typepost":"Delivery office","latitude":"41.541229","longitude":"21.002192"},{"name":"Kichevo","street1":"Drugovo","city":"Drugovo","zip":"6261","phone":"045\/ 266-001","workingperiod":"Monday-Friday: 08:00-15:00 - Saturday: 08:00-13:00","typepost":"Delivery office","latitude":"41.48796","longitude":"20.93457"},{"name":"Kichevo","street1":"Partizanski odredi bb ","city":"Rashtanski pat","zip":"6260","phone":"045\/ 261-222","workingperiod":"Monday-Friday: 08:00-15:00 - Saturday: 08:00-13:00","typepost":"Delivery office","latitude":"41.525838","longitude":"20.949982"},{"name":"Kichevo","street1":"Vraneshtica","city":"Vraneshtica","zip":"6258","phone":"045\/ 284-095","workingperiod":"Monday-Friday: 08:00-14:30 - Saturday: 08:00-13:00","typepost":"Delivery office","latitude":"41.445369","longitude":"21.026262"},{"name":"Kichevo","street1":"Dlapkin Dol","city":"Dlapkin Dol","zip":"6257","phone":"045\/ 254-951","workingperiod":"Monday-Friday: 08:00-15:00 - Saturday: 08:00-13:00","typepost":"Delivery office","latitude":"41.560242","longitude":"20.936445"},{"name":"Kichevo","street1":"Brzhdani","city":"Brzhdani","zip":"6255","phone":"045\/ 282-002","workingperiod":"Monday-Friday: 08:00-14:30 - Saturday: 08:00-14:30","typepost":"Delivery office","latitude":"41.44433","longitude":"20.917104"},{"name":"Kichevo","street1":"Oslomej","city":"Oslomej","zip":"6254","phone":"045\/ 258-001","workingperiod":"Monday-Friday: 08:00-15:00 - Saturday: 08:00-13:00","typepost":"Delivery office","latitude":"41.576014","longitude":"20.997691"},{"name":"Kichevo","street1":"Zajas","city":"Zajas","zip":"6253","phone":"045\/ 251-222","workingperiod":"Monday-Friday: 08:00-15:00 - Saturday: 08:00-13:00","typepost":"Delivery office","latitude":"41.597092","longitude":"20.938851"},{"name":"Kichevo","street1":"4-ti Juli 182\/2","city":"Kichevo","zip":"6252","phone":"045\/ 222-406","workingperiod":"Monday-Friday: 07:00-19:00 - Saturday: 07:00-19:00","typepost":"Office of posting","latitude":"41.511268","longitude":"20.95297"},{"name":"Kichevo","street1":"Marshal Tito bb, TC Arabela","city":"Kichevo","zip":"6251","phone":"045\/ 228-756","workingperiod":"Monday-Friday: 07:00-19:00 - Saturday: 07:00-19:00","typepost":"Office of posting","latitude":"41.519101","longitude":"20.962061"},{"name":"Kichevo","street1":"Marshal Tito No.43","city":"Kichevo","zip":"6250","phone":"045\/ 222-264","workingperiod":"Monday-Friday: 07:00-19:00 - Saturday: 07:00-19:00","typepost":"Delivery office","latitude":"41.510843","longitude":"20.962625"},{"name":"Kavadarci","street1":"blvd. Mosha Pijade bb","city":"Kavadarci","zip":"1431","phone":"043\/ 414-300","workingperiod":"Monday-Friday: 08:00-16:00","typepost":"Office of posting","latitude":"41.43958","longitude":"22.009271"},{"name":"Kavadarci","street1":"Ilindenska bb","city":"Sopot","zip":"1427","phone":"043\/ 444-242","workingperiod":"Monday-Friday: 07:00-14:00 - Saturday: 07:00-12:00","typepost":"Delivery office","latitude":"42.243246","longitude":"21.72614"},{"name":"Kavadarci","street1":"Marshal Tito bb","city":"Marena","zip":"1426","phone":"043\/ 444-100","workingperiod":"Monday-Friday: 07:00-14:00 - Saturday: 07:00-12:00","typepost":"Delivery office","latitude":"41.465542","longitude":"22.027441"},{"name":"Kavadarci","street1":"Strasho Pindjur No.100","city":"Vatasha","zip":"1425","phone":"043\/ 413-200","workingperiod":"Monday-Friday: 08:00-16:00","typepost":"Office of posting","latitude":"41.418881","longitude":"22.018222"},{"name":"Kavadarci","street1":"Vozarci","city":"Vozarci","zip":"1424","phone":"043\/ 445-001","workingperiod":"Monday-Friday: 07:00-14:00 - Saturday: 07:00-12:00","typepost":"Delivery office","latitude":"41.42978","longitude":"21.92471"},{"name":"Kavadarci","street1":"Drenovo","city":"Drenovo","zip":"1423","phone":"043\/ 445-010","workingperiod":"Monday-Friday: 07:00-14:00 - Saturday: 07:00-12:00","typepost":"Delivery office","latitude":"41.419106","longitude":"21.889742"},{"name":"Kavadarci","street1":"Sirkovo","city":"Sirkovo","zip":"1421","phone":"043\/ 446-100","workingperiod":"Monday-Friday: 07:00-14:00 - Saturday: 07:00-12:00","typepost":"Delivery office","latitude":"41.505782","longitude":"21.889555"},{"name":"Bitola","street1":"Zhvan","city":"Zhvan","zip":"7244","phone":"047\/ 212-546","workingperiod":" Monday-Friday: 07:00-14:00 - Saturday: 07:00-12:00","typepost":"Delivery office","latitude":"41.286444","longitude":"21.119061"},{"name":"Kochani","street1":"Goce Delchev No.2","city":"Trabotivishte","zip":"2325","phone":"033\/ 434-200","workingperiod":" Monday-Friday: 07:00-14:00 - Saturday: 07:00-12:00","typepost":"Delivery office","latitude":"41.890726","longitude":"22.816889"},{"name":"Ohrid","street1":"Golem Papradnik","city":"Golem Papradnik","zip":"1258","phone":"046\/ 840-522","workingperiod":"Monday-Fiday 08:00-15:00 - Saturday: 08:00-13:00","typepost":"Delivery office","latitude":"41.47685","longitude":"20.544586"},{"name":"Gostivar","street1":"Brakja Gjinoski 36","city":"Gostivar","zip":"1240","phone":"042\/ 223-861","workingperiod":"Monday-Friday: 07:00-19:00","typepost":"Office of posting","latitude":"41.789218","longitude":"20.907436"},{"name":"Gostivar","street1":"Skudrinje","city":"Skudrinje","zip":"1257","phone":"042\/ 470-454","workingperiod":"Monday-Friday: 07:00-14:00 - Saturday: 07:00-12:00","typepost":"Delivery office","latitude":"41.565131","longitude":"20.609836"},{"name":"Gostivar","street1":"Mavrovi Anovi","city":"Mavrovi Anovi","zip":"1256","phone":"042\/ 489-000","workingperiod":"Monday-Friday: 07:00-14:00 - Saturday: 07:00-12:00","typepost":"Delivery office","latitude":"41.697895","longitude":"20.749485"},{"name":"Gostivar","street1":"Zhirovnica","city":"Zhirovnica","zip":"1255","phone":"042\/ 487-023","workingperiod":"Monday-Friday: 07:00-14:00 - Saturday: 07:00-12:00","typepost":"Delivery office","latitude":"41.67461","longitude":"20.586506"},{"name":"Gostivar","street1":"Rostusha","city":"Rostusha","zip":"1254","phone":"042\/ 478-002","workingperiod":"Monday-Friday: 07:00-14:00 - Saturday: 07:00-12:00","typepost":"Delivery office","latitude":"41.610741","longitude":"20.598852"},{"name":"Gostivar","street1":"Ilindenska No.298","city":"Gostivar","zip":"1245","phone":"042\/ 210-315","workingperiod":"Monday-Friday: 08:00-16:00 - Saturday: 08:00-13:00","typepost":"Office of posting","latitude":"41.813948","longitude":"20.917089"},{"name":"Gostivar","street1":"Chajle","city":"Chajle","zip":"1243","phone":"042\/ 286-253","workingperiod":"Monday-Friday: 08:00-15:00 - Saturday: 08:00-13:00","typepost":"Delivery office","latitude":"41.804932","longitude":"20.932512"},{"name":"Gostivar","street1":"Srbinovo","city":"Srbinovo","zip":"1239","phone":"042\/ 351-895","workingperiod":"Monday-Friday: 08:00-15:00 - Saturday: 08:00-13:00","typepost":"Delivery office","latitude":"41.706577","longitude":"20.960525"},{"name":"Skopje 1","street1":"Djon Kenedi bb","city":"Skopje - Chair","zip":"1010","phone":"02\/ 2612-283","workingperiod":"Monday-Friday: 07:00-20:00 - Saturday: 08:00-15:00","typepost":"Delivery office","latitude":"42.014244","longitude":"21.443267"},{"name":"Gostivar","street1":"Vrapchishte","city":"Vrapchishte","zip":"1238","phone":"042\/ 332-501","workingperiod":"Monday-Friday: 08:00-15:00 - Saturday: 08:00-13:00","typepost":"Delivery office","latitude":"41.837361","longitude":"20.885409"},{"name":"Gostivar","street1":"Chegrane","city":"Chegrane","zip":"1237","phone":"042\/ 322-414","workingperiod":"Monday-Friday: 08:00-15:00 - Saturday: 08:00-13:00","typepost":"Delivery office","latitude":"41.830344","longitude":"20.967486"},{"name":"Gostivar","street1":"Dobri Dol","city":"Dobri Dol","zip":"1236","phone":"042\/ 311-202","workingperiod":"Monday-Friday: 08:00-15:00 - Saturday: 08:00-13:00","typepost":"Delivery office","latitude":"41.86584","longitude":"20.887492"},{"name":"Gostivar","street1":"Negotino - Polog","city":"Negotino - Polog","zip":"1235","phone":"042\/ 311-014","workingperiod":"Monday-Friday: 08:00-15:00 - Saturday: 08:00-13:00","typepost":"Delivery office","latitude":"41.878335","longitude":"20.885893"},{"name":"Gostivar","street1":"Debreshe","city":"Debreshe","zip":"1234","phone":"042\/ 371-810","workingperiod":"Monday-Friday: 08:00-15:00 - Saturday: 08:00-13:00","typepost":"Delivery office","latitude":"41.817808","longitude":"20.881045"},{"name":"Gevgelija","street1":"Boulevard Gevgelija No. 22","city":"Gevgelija","zip":"1491","phone":"034\/ 211-208","workingperiod":"Monday-Friday: 08:00-16:00","typepost":"Office of posting","latitude":"41.146413","longitude":"22.502965"},{"name":"Gevgelija","street1":" Miravci No.2","city":"Miravci","zip":"1489","phone":"034\/ 229-012","workingperiod":"Monday-Friday: 07:00-14:00 - Saturday: 07:00-12:00","typepost":"Delivery office","latitude":"41.308245","longitude":"22.437073"},{"name":"Gevgelija","street1":"Goce Delchev No.22","city":"Negorci","zip":"1483","phone":"034\/ 231-100","workingperiod":"Monday-Friday: 07:00-14:00 - Saturday: 07:00-12:00","typepost":"Delivery office","latitude":"41.184202","longitude":"22.480215"},{"name":"Kochani","street1":"Dragobrashte","city":"Dragobrashte","zip":"2316","phone":"033\/ 375-439","workingperiod":"Monday-Friday: 08:00-15:00 - Saturday: 08:00-13:00","typepost":"Delivery office","latitude":"41.897377","longitude":"22.5988"},{"name":"Kochani","street1":"Blatec","city":"Blatec","zip":"2314","phone":"033\/ 371-310","workingperiod":"Monday-Friday: 07:00-14:00 - Saturday: 07:00-12:00","typepost":"Delivery office","latitude":"41.837254","longitude":"22.577246"},{"name":"Kochani","street1":"Istibanja","city":"Istibanja","zip":"2312","phone":"033\/ 373-610","workingperiod":"Monday-Friday: 07:00-14:00 - Saturday: 07:30-12:30","typepost":"Delivery office","latitude":"41.930782","longitude":"22.501325"},{"name":"Veles","street1":"Bogomila","city":"Bogomila","zip":"1415","phone":"043\/ 248-211","workingperiod":"Monday-Friday: 07:00-14:00 - Saturday: 07:00-11:30","typepost":"Delivery office","latitude":"41.593229","longitude":"21.471364"},{"name":"Veles","street1":"Izvor","city":"Izvor","zip":"1414","phone":"043\/ 245-000","workingperiod":"Monday-Friday: 08:30-15:00 - Saturday: 07:00-11:30","typepost":"Delivery office","latitude":"41.554982","longitude":"21.697583"},{"name":"Veles","street1":"Ilindenska 6","city":"Chashka","zip":"1413","phone":"043\/ 241-401","workingperiod":"Monday-Friday: 07:30-14:30 - Saturday: 07:30-12:00","typepost":"Delivery office","latitude":"41.647288","longitude":"21.691318"},{"name":"Veles","street1":"Gorno Jabolchishte","city":"Gorno Jabolchishte","zip":"1412","phone":"043\/ 235-307","workingperiod":"Monday-Friday: 07:00-13:30 - Saturday: 07:00-13:30","typepost":"Delivery office","latitude":"41.724613","longitude":"21.487678"},{"name":"Veles","street1":"Saraevska bb","city":"Gorno Orizari","zip":"1408","phone":"043\/ 255-000","workingperiod":"Monday-Friday: 07:00-13:30 - Saturday: 07:00-11:30","typepost":"Delivery office","latitude":"41.686382","longitude":"21.734418"},{"name":"Veles","street1":"Partizanska No.99","city":"Ivankovci","zip":"1407","phone":"043\/ 253-000","workingperiod":"Monday-Friday: 07:00-14:00 - Saturday: 07:00-11:30","typepost":"Delivery office","latitude":"41.849035","longitude":"21.820201"},{"name":"Veles","street1":"Bashino Selo","city":"Bashino Selo","zip":"1406","phone":"043\/ 243-122","workingperiod":"Monday-Friday: 07:00-14:00 - Saturday: 07:00-12:00","typepost":"Delivery office","latitude":"41.748249","longitude":"21.758965"},{"name":"Veles","street1":"Nada Batnikosheva No.2","city":"Veles","zip":"1403","phone":"043\/ 233-945","workingperiod":"Monday-Friday: 08:00-16:00","typepost":"Office of posting","latitude":"41.713351","longitude":"21.787025"},{"name":"Strumica","street1":"Udovo","city":"Udovo","zip":"2464","phone":"034\/ 386-040","workingperiod":"Monday-Friday: 07:00-14:00 - Saturday: 07:00-13:30","typepost":"Delivery office","latitude":"41.346534","longitude":"22.437368"},{"name":"Strumica","street1":"Pirava","city":"Pirava","zip":"2463","phone":"034\/ 382-615","workingperiod":"Monday-Friday: 07:00-14:00 - Saturday: 07:00-13:30","typepost":"Delivery office","latitude":"41.319459","longitude":"22.533301"},{"name":"Strumica","street1":"Josifovo","city":"Josifovo","zip":"2462","phone":"034\/ 386-042","workingperiod":"Monday-Friday: 07:00-14:00 - Saturday: 07:00-13:30","typepost":"Delivery office","latitude":"41.333246","longitude":"22.47636"},{"name":"Strumica","street1":"Chalakli","city":"Chalakli","zip":"2461","phone":"034\/ 389-202","workingperiod":"Monday-Friday: 07:00-14:00 - Saturday: 07:00-12:00","typepost":"Delivery office","latitude":"41.304087","longitude":"22.639305"},{"name":"Gevgelija","street1":"Marshal Tito bb","city":"Stojakovo","zip":"1488","phone":"034\/ 235-311","workingperiod":"Monday-Friday: 07:00-14:00 - Saturday: 07:00-12:00","typepost":"Delivery office","latitude":"41.156514","longitude":"22.578045"},{"name":"Gevgelija","street1":" Marshal Tito bb","city":"Star Dojran","zip":"1487","phone":"034\/ 225-325","workingperiod":"Monday-Friday: 07:00-14:00 - Saturday: 07:00-12:00","typepost":"Delivery office","latitude":"41.1857015","longitude":"22.7215611"},{"name":"Gevgelija","street1":"Marshal Tito bb","city":"Nov Dojran","zip":"1485","phone":"034\/ 227-204","workingperiod":"Monday-Friday: 07:00-14:00 - Saturday: 07:00-12:00","typepost":"Delivery office","latitude":"41.218983","longitude":"22.705361"},{"name":"Bitola","street1":"Kazhani","city":"Kazhani","zip":"7314","phone":"047\/ 212-561","workingperiod":"Monday-Friday: 07:00-14:00 - Saturday: 07:00-12:00","typepost":"Delivery office","latitude":"41.065583","longitude":"21.147759"},{"name":"Bitola","street1":"Capari","city":"Capari","zip":"7313","phone":"047\/ 212-562","workingperiod":"Monday-Friday: 07:00-13:00 - Saturday: 07:00-13:00","typepost":"Delivery office","latitude":"41.057034","longitude":"21.179876"},{"name":"Bitola","street1":"Ivanjevci","city":"Ivanjevci","zip":"7245","phone":"047\/ 212-549","workingperiod":"Monday-Friday: 07:30-14:00 - Saturday: 07:30-12:00","typepost":"Delivery office","latitude":"41.205601","longitude":"21.358355"},{"name":"Bitola","street1":"Kukurechani","city":"Kukurechani","zip":"7241","phone":"047\/ 212-541","workingperiod":"Monday-Friday: 07:00-14:00 - Saturday: 07:00-12:00","typepost":"Delivery office","latitude":"41.095022","longitude":"21.323975"},{"name":"Bitola","street1":"Bach","city":"Bach","zip":"7225","phone":"047\/ 212-559","workingperiod":"Monday-Friday: 07:00-14:00 - Saturday: 07:00-12:00","typepost":"Delivery office","latitude":"40.931704","longitude":"21.557622"},{"name":"Bitola","street1":"","city":"Bitola","zip":"7221","phone":"047\/ 212-556","workingperiod":"Monday-Friday: 08:00-14:30 - Saturday: 08:00-13:00","typepost":"Delivery office","latitude":"40.979072","longitude":"21.365791"},{"name":"Bitola","street1":"Mogila","city":"Mogila","zip":"7216","phone":"047\/ 212-548","workingperiod":"Monday-Friday: 08:00-14:30 - Saturday: 08:00-13:00","typepost":"Delivery office","latitude":"41.107254","longitude":"21.378607"},{"name":"Bitola","street1":"Dobrushevo","city":"Dobrushevo","zip":"7215","phone":"047\/ 212-553","workingperiod":"Monday-Friday: 08:00-14:30 - Saturday: 08:00-13:00","typepost":"Delivery office","latitude":"41.167245","longitude":"21.481182"},{"name":"Bitola","street1":"Dedebalci","city":"Dedebalci","zip":"7212","phone":"047\/ 212-552","workingperiod":"Monday-Friday: 08:00-14:30 - Saturday: 08:00-13:00","typepost":"Delivery office","latitude":"41.115244","longitude":"21.484921"},{"name":"Bitola","street1":"Novaci","city":"Novaci","zip":"7211","phone":"047\/ 212-551","workingperiod":"Monday-Friday: 07:00-14:00 - Saturday: 07:00-12:00","typepost":"Delivery office","latitude":"41.04177","longitude":"21.457803"},{"name":"Bitola","street1":"Dihovo","city":"Dihovo","zip":"7205","phone":"047\/ 212-560","workingperiod":"Monday-Friday: 07:00-13:30 - Saturday: 07:00-13:30","typepost":"Delivery office","latitude":"41.029692","longitude":"21.263016"},{"name":"Bitola","street1":"Dolno Orizari","city":"Dolno Orizari","zip":"7204","phone":"047\/ 212-550","workingperiod":"Monday-Friday: 07:00-13:30 - Saturday: 07:00-13:30","typepost":"Delivery office","latitude":"41.049815","longitude":"21.37855"},{"name":"Bitola","street1":"Narodni Heroi bb","city":"Bitola","zip":"7110","phone":"047\/ 212-530","workingperiod":"Monday-Friday: 07:00-19:00 - Saturday: 07:00-19:00","typepost":"Office of posting","latitude":"41.0249866","longitude":"21.3131582"},{"name":"Bitola","street1":"blvd. 1-vi \u0420\u045a\u0420\u00b0\u0421\u0098 bb","city":"Bitola","zip":"7109","phone":"047\/ 212-500","workingperiod":"Monday-Friday: 07:00-15:00 -","typepost":"Office of posting","latitude":"41.031858","longitude":"21.333007"},{"name":"Bitola","street1":"Ivo Lola Ribar bb","city":"Bitola","zip":"7107","phone":"047\/ 212-527","workingperiod":"Monday-Friday: 08:00-15:00 - Saturday: 08:00-13:00","typepost":"Office of posting","latitude":"41.019878","longitude":"21.341402"},{"name":"Bitola","street1":"blvd. 1-vi \u0420\u045a\u0420\u00b0\u0421\u0098 No. 2","city":"Bitola","zip":"7105","phone":"047\/ 212-525","workingperiod":"Monday-Friday: 08:00-15:00 - Saturday: 08:00-13:00","typepost":"Office of posting","latitude":"41.032821","longitude":"21.316568"},{"name":"Bitola","street1":"Partizanska bb","city":"Bitola","zip":"7104","phone":"047\/ 212-524","workingperiod":"Monday-Friday: 08:00-15:00 - Saturday: 08:00-13:00","typepost":"Office of posting","latitude":"41.023263","longitude":"21.329538"},{"name":"Bitola","street1":"Ivan Milutinovikj No. 37","city":"Bitola","zip":"7103","phone":"047\/ 212-523","workingperiod":"Monday-Friday: 08:00-15:00 - Saturday: 08:00-13:00","typepost":"Office of posting","latitude":"41.03547","longitude":"21.340118"},{"name":"Bitola","street1":"Prilepska bb","city":"Bitola","zip":"7102","phone":"047\/ 212-522","workingperiod":"Monday-Friday: 07:00-18:00 - Saturday: 07:00-18:00","typepost":"Office of posting","latitude":"41.032263","longitude":"21.341553"},{"name":"Kochani","street1":"Budinarci","city":"Budinarci","zip":"2332","phone":"033\/ 445-001","workingperiod":"Monday-Friday: 08:00-15:00 - Saturday: 08:00-13:00","typepost":"Delivery office","latitude":"41.763858","longitude":"22.775103"},{"name":"Kochani","street1":"Ploshtad Sloboda No.1","city":"Vladimirovo","zip":"2331","phone":"033\/ 447-211","workingperiod":"Monday-Friday: 07:00-14:00 - Saturday: 07:00-12:00","typepost":"Delivery office","latitude":"41.709207","longitude":"22.793467"},{"name":"Skopje 1","street1":"29 Noemvri bb","city":"Skopje","zip":"1111","phone":"02\/ 3117-339","workingperiod":"Monday-Friday: 09:00-17:00","typepost":"Office of posting","latitude":"41.998284","longitude":"21.417181"},{"name":"Kochani","street1":" Marshal Tito No.126","city":"Rusinovo","zip":"2315","phone":"033\/ 448-525","workingperiod":"Monday-Friday: 07:00-14:00 - Saturday: 07:00-12:00","typepost":"Delivery office","latitude":"41.687697","longitude":"22.807976"},{"name":"Bitola","street1":"Jankovec","city":"Jankovec","zip":"7320","phone":"047\/ 485-230","workingperiod":"Monday-Friday: 08:00-15:00 - Saturday: 08:00-13:00","typepost":"Delivery office","latitude":"41.110027","longitude":"21.010925"},{"name":"Shtip","street1":"Lozovo","city":"Lozovo","zip":"2208","phone":"032\/ 458-018","workingperiod":"Monday-Friday: 08:00-14:30 - Saturday: 08:00-12:30","typepost":"Delivery office","latitude":"41.782033","longitude":"21.902855"},{"name":"Shtip","street1":"Erdjelija","city":"Erdjelija","zip":"2225","phone":"032\/ 459-099","workingperiod":"Monday-Friday: 07:00-14:30 - Saturday: 08:00-12:30","typepost":"Delivery office","latitude":"41.834629","longitude":"22.037742"},{"name":"Shtip","street1":"Amzabegovo","city":"Amzabegovo","zip":"2227","phone":"032\/ 455-123","workingperiod":"Monday-Friday: 08:00-14:30 - Saturday: 08:00-12:30","typepost":"Delivery office","latitude":"41.811098","longitude":"21.994138"},{"name":"Skopje 1","street1":"1 bb, ","city":"Kuchevishte","zip":"1011","phone":"02\/ 2666-015","workingperiod":"Monday-Friday: 07:00-14:00 - Saturday: 08:00-13:00","typepost":"Delivery office","latitude":"42.108493","longitude":"21.417528"},{"name":"Skopje 1","street1":"9, No.60","city":"Ilinden","zip":"1041","phone":"02\/ 2571-523","workingperiod":"Monday-Friday: 07:00-14:00 - Saturday: 08:00-13:00","typepost":"Delivery office","latitude":"41.994372","longitude":"21.577621"},{"name":"Skopje 1","street1":"10 bb","city":"Miladinovci","zip":"1042","phone":"02\/ 2577-073","workingperiod":"Monday-Friday: 07:00-14:00 - Saturday: 08:00-13:00","typepost":"Delivery office","latitude":"41.977573","longitude":"21.649399"},{"name":"Skopje 1","street1":"Petrovec","city":"Petrovec","zip":"1043","phone":"02\/ 2561-410","workingperiod":"Monday-Friday: 07:00-14:00 - Saturday: 08:00-13:00","typepost":"Delivery office","latitude":"41.937551","longitude":"21.61846"},{"name":"Skopje 1","street1":"4 bb ","city":"Katlanovo","zip":"1044","phone":"02\/ 2566-160","workingperiod":"Monday-Friday: 07:00-14:00 - Saturday: 08:00-13:00","typepost":"Delivery office","latitude":"41.89304","longitude":"21.681025"},{"name":"Skopje 1","street1":"Arachinovo","city":"Arachinovo","zip":"1045","phone":"02\/ 2570-310","workingperiod":"Monday-Friday: 07:00-14:00 - Saturday: 08:00-13:00","typepost":"Delivery office","latitude":"42.026327","longitude":"21.562959"},{"name":"Skopje 1","street1":"1 bb","city":"Jurumleri","zip":"1047","phone":"02\/ 2545-300","workingperiod":"Monday-Friday: 07:00-14:00 - Saturday: 08:00-13:00","typepost":"Delivery office","latitude":"41.964413","longitude":"21.555477"},{"name":"Skopje 1","street1":"Batinci bb","city":"Batinci","zip":"1051","phone":"02\/ 2722-257","workingperiod":"Monday-Friday: 08:00-15:00 - Saturday: 08:00-13:00","typepost":"Delivery office","latitude":"41.92253","longitude":"21.489818"},{"name":"Skopje 1","street1":"Studenichani bb","city":"Studenichani","zip":"1052","phone":"02\/ 2724-454","workingperiod":"Monday-Friday: 08:00-15:00 - Saturday: 08:00-13:00","typepost":"Delivery office","latitude":"41.915332","longitude":"21.531137"},{"name":"Skopje 1","street1":"Zelenikovo Railway Station","city":"Zelenikovo","zip":"1053","phone":"02\/ 2717-577","workingperiod":"Monday-Friday: 07:00-14:00 - Saturday: 08:00-13:00","typepost":"Delivery office","latitude":"41.873198","longitude":"21.601126"},{"name":"Skopje 1","street1":"2 No.2","city":"Rakotinci","zip":"1054","phone":"02\/ 2743-002","workingperiod":"Monday-Friday: 07:00-14:00 - Saturday: 08:00-13:00","typepost":"Delivery office","latitude":"41.940315","longitude":"21.413724"},{"name":"Skopje 1","street1":"Radusha","city":"Radusha","zip":"1062","phone":"02\/ 2034-016","workingperiod":"Monday-Friday: 07:00-14:00 - Saturday: 08:00-13:00","typepost":"Delivery office","latitude":"42.084809","longitude":"21.208168"},{"name":"Skopje 1","street1":"Bukovikj","city":"Bukovikj","zip":"1063","phone":"02\/ 2059-105","workingperiod":"Monday-Friday: 07:00-14:00 - Saturday: 08:00-13:00","typepost":"Delivery office","latitude":"41.973418","longitude":"21.238144"},{"name":"Skopje 1","street1":"1 bb","city":"Kondovo","zip":"1064","phone":"02\/ 2056-334","workingperiod":"Monday-Friday: 08:00-15:00 - Saturday: 08:00-13:00","typepost":"Delivery office","latitude":"42.011076","longitude":"21.314219"},{"name":"Skopje 1","street1":"6 No. 20 ","city":"Saraj","zip":"1066","phone":"02\/ 2056-363","workingperiod":"Monday-Friday: 09:00-17:00","typepost":"Delivery office","latitude":"41.996218","longitude":"21.3238"},{"name":"Skopje 1","street1":"blvd. Jane Sandanski No.9","city":"Skopje","zip":"1107","phone":"02\/ 2463-667","workingperiod":"Monday-Friday: 09:00-17:00","typepost":"Office of posting","latitude":"41.989481","longitude":"21.46029"},{"name":"Skopje 1","street1":"Vodnjanska No.17","city":"Skopje","zip":"1109","phone":"02\/ 3127-395","workingperiod":"Monday-Friday: 09:00-17:00","typepost":"Office of posting","latitude":"41.98965","longitude":"21.419886"},{"name":"Skopje 1","street1":"Jurij Gagarin No.70 ","city":"Skopje","zip":"1110","phone":"02\/ 3082-616","workingperiod":"Monday-Friday: 09:00-17:00","typepost":"Office of posting","latitude":"41.995753","longitude":"21.397281"},{"name":"Skopje 1","street1":"15-ti Korpus","city":"Skopje","zip":"1113","phone":"02\/ 3114-186","workingperiod":"Monday-Friday: 09:00-17:00","typepost":"Office of posting","latitude":"41.99952","longitude":"21.479823"},{"name":"Skopje 1","street1":"Hristo Tatarchev 47\/5","city":"Skopje","zip":"1116","phone":"02\/ 2775-725","workingperiod":"Monday-Friday: 09:00-17:00","typepost":"Office of posting","latitude":"41.973449","longitude":"21.444889"},{"name":"Skopje 1","street1":"Metodija Mitevski bb","city":"Skopje","zip":"1117","phone":"02\/ 2611-377","workingperiod":"Monday-Friday: 09:00-17:00","typepost":"Office of posting","latitude":"42.0188302","longitude":"21.4324967"},{"name":"Skopje 1","street1":"Blagoja Stefkovski bb - Madjari","city":"Skopje","zip":"1118","phone":"02\/ 2522-722","workingperiod":"Monday-Friday: 09:00-17:00","typepost":"Office of posting","latitude":"41.995473","longitude":"21.500354"},{"name":"Skopje 1","street1":"blvd. Partizanski odredi No.2","city":"Skopje","zip":"1119","phone":"02\/ 3064-899","workingperiod":"Monday-Friday: 09:00-17:00","typepost":"Office of posting","latitude":"42.003677","longitude":"21.387127"},{"name":"Skopje 1","street1":"Vostanichka bb","city":"Skopje","zip":"1120","phone":"02\/ 2736-237","workingperiod":"Monday-Friday: 09:00-17:00","typepost":"Office of posting","latitude":"41.981068","longitude":"21.432389"},{"name":"Skopje 1","street1":"Dimitar Turimandjoski bb","city":"Skopje","zip":"1121","phone":"02\/ 2440-822","workingperiod":"Monday-Friday: 09:00-17:00","typepost":"Office of posting","latitude":"41.97437","longitude":"21.471671"},{"name":"Skopje 1","street1":"Ankarska No.30","city":"Skopje","zip":"1122","phone":"02\/ 3074-276","workingperiod":"Monday-Friday: 09:00-17:00","typepost":"Office of posting","latitude":"41.997455","longitude":"21.408527"},{"name":"Skopje 1","street1":"Radishanska No.25","city":"Radishani","zip":"1014","phone":"02\/ 2670-022","workingperiod":"Monday-Friday: 09:00-17:00","typepost":"Delivery office","latitude":"42.06229","longitude":"21.450947"},{"name":"Skopje 1","street1":"Jablanica No.26","city":"Skopje","zip":"1127","phone":"02\/ 2728-328","workingperiod":"Monday-Friday: 09:00-17:00","typepost":"Office of posting","latitude":"41.954721","longitude":"21.48698"},{"name":"Skopje 1","street1":"TAV Airport","city":"Skopje","zip":"1128","phone":"02\/ 3119-663","workingperiod":"Monday-Friday: 00:00-24:00 - Saturday-Sunday: 00:00-24:00","typepost":"Office of posting","latitude":"41.961009","longitude":"21.626892"},{"name":"Skopje 1","street1":"103 No. 25","city":"Volkovo","zip":"1065","phone":"02\/ 3004-510","workingperiod":"Monday-Friday: 08:00-15:00 - Saturday: 08:00-13:00","typepost":"Delivery office","latitude":"42.039554","longitude":"21.347806"},{"name":"Skopje 1","street1":"Koce Metalec bb","city":"Skopje","zip":"1136","phone":"02\/ 2611-384","workingperiod":"Monday-Friday: 09:00-17:00","typepost":"Office of posting","latitude":"42.011524","longitude":"21.459461"},{"name":"Skopje 1","street1":"blvd. Krste Misirkov bb - Faculty of Law","city":"Skopje","zip":"1137","phone":"02\/ 3113-824","workingperiod":"Monday-Friday: 08:00-16:00","typepost":"Office of posting","latitude":"41.999781","longitude":"21.444358"},{"name":"Skopje 1","street1":"Sv.Kiril i Metodij 13(M.H.Jasmin) - \u0420\u045eC Ramstore","city":"Skopje","zip":"1112","phone":"02\/ 3120-180","workingperiod":"Monday-Saturday: 10:00-20:00 - Sunday:10:00-17:30 -","typepost":"Office of posting","latitude":"41.991723","longitude":"21.427631"},{"name":"Skopje 1","street1":"Eftim Sprostranov bb","city":"Skopje","zip":"1140","phone":"02\/ 2781-267","workingperiod":"Monday-Friday: 09:00-17:00","typepost":"Office of posting","latitude":"41.975778","longitude":"21.454596"},{"name":"Skopje 1","street1":"Valandovska bb","city":"Skopje","zip":"1141","phone":"02\/ 2530-740","workingperiod":"Monday-Friday: 09:00-17:00","typepost":"Office of posting","latitude":"41.99533","longitude":"21.509571"},{"name":"Skopje 1","street1":"Nikola Rusinski bb","city":"Skopje","zip":"1020 ","phone":"02\/ 3063-344","workingperiod":"Monday-Friday: 08:00-15:00","typepost":"Delivery office","latitude":"42.004053","longitude":"21.409431"},{"name":"Ohrid","street1":"Proleterski brigadi bb","city":"Struga","zip":"6331","phone":"046\/ 784-515","workingperiod":"Monday-Friday: 07:00-19:00 - Saturday: 07:00-19:00","typepost":"Office of posting","latitude":"41.178593","longitude":"20.676487"},{"name":"Ohrid","street1":"Radolishta","city":"Radolishta","zip":"6333","phone":"046\/ 796-666","workingperiod":"Monday-Friday: 08:00-15:00 - Saturday: 08:00-13:00","typepost":"Delivery office","latitude":"41.164603","longitude":"20.623048"},{"name":"Ohrid","street1":"Veleshta","city":"Veleshta","zip":"6334","phone":"046\/ 793-030","workingperiod":"Monday-Friday: 07:00-19:00 - Saturday: 07:00-19:00","typepost":"Delivery office","latitude":"41.240576","longitude":"20.641939"},{"name":"Ohrid","street1":"Vevchani","city":"Vevchani","zip":"6335","phone":"046\/ 798-202","workingperiod":"Monday-Friday: 08:00-15:00 - Saturday: 08:00-13:00","typepost":"Delivery office","latitude":"41.240268","longitude":"20.592838"},{"name":"Ohrid","street1":"Labunishta","city":"Labunishta","zip":"6336","phone":"046\/ 784-920","workingperiod":"Monday-Friday: 08:00-15:00 - Saturday: 08:00-13:00","typepost":"Delivery office","latitude":"41.268787","longitude":"20.593128"},{"name":"Ohrid","street1":"Lukovo","city":"Lukovo","zip":"6337","phone":"046\/ 780-006","workingperiod":"Monday-Friday: 07:00-14:00 - Saturday: 07:00-13:00","typepost":"Delivery office","latitude":"41.355187","longitude":"20.608378"},{"name":"Ohrid","street1":"Delogozhdi","city":"Delogozhdi","zip":"6338","phone":"046\/ 709-500","workingperiod":"Monday-Friday: 08:00-15:00 - Saturday: 08:00-13:00","typepost":"Delivery office","latitude":"41.25793","longitude":"20.7199"},{"name":"Ohrid","street1":"Oktisi","city":"Oktisi","zip":"6339","phone":"046\/ 799-394","workingperiod":"Monday-Friday: 08:00-15:00 - Saturday: 08:00-13:00","typepost":"Delivery office","latitude":"41.232325","longitude":"20.608768"},{"name":"Strumica","street1":"Marshal Tito bb","city":"Strumica","zip":"2403","phone":"034\/ 347-608","workingperiod":"Monday-Friday: 07:00-19:00 - Saturday: 08:00-16:00","typepost":"Office of posting","latitude":"41.427734","longitude":"22.645904"},{"name":"Strumica","street1":"Janko Cvetinov bb","city":"Strumica","zip":"2404","phone":"034\/ 344-644","workingperiod":"Monday-Friday: 07:00-19:00 - Saturday: 08:00-16:00","typepost":"Office of posting","latitude":"41.4434676","longitude":"22.643053"},{"name":"Strumica","street1":"Kuklish","city":"Kuklish","zip":"2410","phone":"034\/ 348-468","workingperiod":"Monday-Friday: 07:00-14:00 - Saturday: 07:00-12:00","typepost":"Delivery office","latitude":"41.405398","longitude":"22.663347"},{"name":"Strumica","street1":"Vasilevo","city":"Vasilevo","zip":"2411","phone":"034\/ 353-010","workingperiod":"Monday-Friday: 07:00-14:00 - Saturday: 07:00-12:00","typepost":"Delivery office","latitude":"41.475452","longitude":"22.641454"},{"name":"Strumica","street1":"Vladevci","city":"Vladevci","zip":"2412","phone":"034\/ 350-010","workingperiod":"Monday-Friday: 07:00-14:00 - Saturday: 07:00-12:00","typepost":"Delivery office","latitude":"41.520038","longitude":"22.612351"},{"name":"Strumica","street1":"Kosturino","city":"Kosturino","zip":"2413","phone":"034\/ 369-650","workingperiod":"Monday-Friday: 07:00-14:00 - Saturday: 07:00-12:00","typepost":"Delivery office","latitude":"41.357122","longitude":"22.609584"},{"name":"Strumica","street1":"Veljusa","city":"Veljusa","zip":"2414","phone":"034\/ 359-010","workingperiod":"Monday-Friday: 07:00-14:00 - Saturday: 07:00-12:00","typepost":"Delivery office","latitude":"41.476601","longitude":"22.567825"},{"name":"Strumica","street1":"Bansko","city":"Bansko","zip":"2415","phone":"034\/ 377-120","workingperiod":"Monday-Friday: 08:00-15:00 - Saturday: 08:00-13:00","typepost":"Office of posting","latitude":"41.385442","longitude":"22.747683"},{"name":"Strumica","street1":"Dobroshinci","city":"Dobroshinci","zip":"2416","phone":"034\/ 378-010","workingperiod":"Monday-Friday: 07:00-14:00 - Saturday: 07:00-12:00","typepost":"Delivery office","latitude":"41.524438","longitude":"22.676038"},{"name":"Strumica","street1":"Petralinci","city":"Petralinci","zip":"2430","phone":"034\/ 375-010","workingperiod":"Monday-Friday: 07:00-14:00 - Saturday: 07:00-12:00","typepost":"Delivery office","latitude":"41.470354","longitude":"22.726561"},{"name":"Strumica","street1":"Bosilovo","city":"Bosilovo","zip":"2431","phone":"034\/ 371-010 ","workingperiod":"Monday-Friday: 07:00-14:00 - Saturday: 07:00-12:00","typepost":"Delivery office","latitude":"41.440312","longitude":"22.728208"},{"name":"Strumica","street1":"Murtino","city":"Murtino","zip":"2432","phone":"034\/ 373-010","workingperiod":"Monday-Friday: 08:00-15:00 - Saturday: 08:00-13:00","typepost":"Delivery office","latitude":"41.417021","longitude":"22.725266"},{"name":"Strumica","street1":"Turnovo","city":"Turnovo","zip":"2433","phone":"034\/ 357-010","workingperiod":"Monday-Friday: 07:00-14:00 - Saturday: 07:00-12:00","typepost":"Delivery office","latitude":"41.438622","longitude":"22.773843"},{"name":"Strumica","street1":"Marshal Tito No.38","city":"Nov\u0420\u0455 Selo","zip":"2434","phone":"034\/ 355-010","workingperiod":"Monday-Friday: 07:30-20:00 - Saturday: 07:30-20:00","typepost":"Delivery office","latitude":"41.4124665","longitude":"22.881935"},{"name":"Strumica","street1":"Mokrievo","city":"Mokrievo","zip":"2435","phone":"034\/ 351-014","workingperiod":"Monday-Friday: 07:00-14:00 - Saturday: 07:00-12:00","typepost":"Delivery office","latitude":"41.375637","longitude":"22.838252"},{"name":"Strumica","street1":"Drazhevo","city":"Drazhevo","zip":"2436","phone":"034\/ 362-010","workingperiod":"Monday-Friday: 07:00-14:00 - Saturday: 07:00-12:00","typepost":"Delivery office","latitude":"41.373042","longitude":"22.919792"},{"name":"Tetovo","street1":"168 bb","city":"Mala Rechica","zip":"1201","phone":"044\/ 347-066","workingperiod":"Monday-Friday: 08:00-15:00 - Saturday: 08:00-13:00","typepost":"Delivery office","latitude":"41.995688","longitude":"20.95345"},{"name":"Tetovo","street1":"Ilindenska bb - South East European University","city":"Tetovo","zip":"1202","phone":"044\/ 338-522","workingperiod":"Monday-Friday: 09:00-16:00 - Saturday: 09:00-15:00","typepost":"Office of posting","latitude":"41.989476","longitude":"20.960124"},{"name":"Tetovo","street1":"Nerashte","city":"Nerashte","zip":"1203","phone":"044\/ 451-101","workingperiod":"Monday-Friday: 07:00-14:00 - Saturday: 07:00-12:00","typepost":"Delivery office","latitude":"42.106391","longitude":"21.108987"},{"name":"Tetovo","street1":"Slatino","city":"Slatino","zip":"1204","phone":"044\/ 383-352","workingperiod":"Monday-Friday: 07:00-14:00 - Saturday: 07:00-12:00","typepost":"Delivery office","latitude":"42.06667","longitude":"21.035869"},{"name":"Tetovo","street1":"Jazhince","city":"Jazhince","zip":"1206","phone":"044\/ 363-001","workingperiod":"Monday-Friday: 07:00-14:00 - Saturday: 07:00-12:00","typepost":"Delivery office","latitude":"42.163879","longitude":"21.176157"},{"name":"Tetovo","street1":"Ilindenska bb. - South East European University","city":"Tetovo","zip":"1207","phone":"044\/ 347-522","workingperiod":"Monday-Friday: 09:00-16:00","typepost":"Office of posting","latitude":"41.991664","longitude":"20.962056"},{"name":"Tetovo","street1":"Dolno Palchishte","city":"Dolno Palchishte","zip":"1210","phone":"044\/ 391-001","workingperiod":"Monday-Friday: 08:00-15:00 - Saturday: 07:00-15:00","typepost":"Delivery office","latitude":"41.968054","longitude":"20.926099"},{"name":"Tetovo","street1":"Dobroshte","city":"Dobroshte","zip":"1211","phone":"044\/ 383-001","workingperiod":"Monday-Friday: 07:00-14:00 - Saturday: 07:00-12:00","typepost":"Delivery office","latitude":"42.105685","longitude":"21.078264"},{"name":"Tetovo","street1":"Djepchishte","city":"Djepchishte","zip":"1212","phone":"044\/ 487-001","workingperiod":"Monday-Friday: 08:00-15:00 - Saturday: 08:00-13:00","typepost":"Delivery office","latitude":"42.032415","longitude":"20.998006"},{"name":"Tetovo","street1":"Zherovjane","city":"Zherovjane","zip":"1213","phone":"044\/ 366-080","workingperiod":"Monday-Friday: 08:00-15:00 - Saturday: 08:00-13:00","typepost":"Delivery office","latitude":"41.914368","longitude":"20.947479"},{"name":"Tetovo","street1":"Pirok","city":"Pirok","zip":"1214","phone":"044\/ 371-001","workingperiod":"Monday-Friday: 08:00-15:00 - Saturday: 08:00-13:00","typepost":"Delivery office","latitude":"41.911929","longitude":"20.91031"},{"name":"Tetovo","street1":"Jegunovce","city":"Jegunovce","zip":"1215","phone":"044\/ 379-001","workingperiod":"Monday-Friday: 07:00-14:00 - Saturday: 07:00-12:00","typepost":"Delivery office","latitude":"42.073604","longitude":"21.120448"},{"name":"Tetovo","street1":"Marshal Tito bb","city":"Brvenica","zip":"1216","phone":"044\/ 455-001","workingperiod":"Monday-Friday: 08:00-15:00 - Saturday: 08:00-13:00","typepost":"Delivery office","latitude":"41.966922","longitude":"20.980897"},{"name":"Tetovo","street1":"Shipkovica","city":"Shipkovica","zip":"1217","phone":"044\/ 364-001","workingperiod":"Monday-Friday: 07:00-14:00 - Saturday: 07:00-12:00","typepost":"Delivery office","latitude":"42.036888","longitude":"20.912071"},{"name":"Tetovo","street1":"Grupchin","city":"Grupchin","zip":"1218","phone":"044\/ 388-001","workingperiod":"Monday-Friday: 07:00-14:00 - Saturday: 07:00-12:00","typepost":"Delivery office","latitude":"41.967659","longitude":"21.131343"},{"name":"Tetovo","street1":"101 bb","city":"Golema Rechica","zip":"1219","phone":"044\/ 481-001","workingperiod":"Monday-Friday: 08:00-15:00 - Saturday: 08:00-13:00","typepost":"Delivery office","latitude":"41.986973","longitude":"20.944442"},{"name":"Tetovo","street1":"Bogovinje","city":"Bogovinje","zip":"1220","phone":"044\/372-001","workingperiod":"Monday-Friday: 08:00-15:00 - Saturday: 08:00-13:00","typepost":"Delivery office","latitude":"41.924595","longitude":"20.91469"},{"name":"Tetovo","street1":"Kamenjane","city":"Kamenjane","zip":"1221","phone":"044\/ 393-001","workingperiod":"Monday-Friday: 08:00-15:00 - Saturday: 08:00-13:00","typepost":"Delivery office","latitude":"41.944201","longitude":"20.928553"},{"name":"Tetovo","street1":"Ilindenska bb","city":"Tetovo","zip":"1222","phone":"044\/ 352-540","workingperiod":"Monday-Friday: 07:00-19:00 - Saturday: 07:00-19:00","typepost":"Office of posting","latitude":"42.00168","longitude":"20.961981"},{"name":"Tetovo","street1":"Ivo Lola Ribar No.85 - Drenovec","city":"Tetovo","zip":"1223","phone":"044\/ 334-104","workingperiod":"Monday-Friday: 08:00-15:00 - Saturday: 08:00-13:00","typepost":"Delivery office","latitude":"42.01519","longitude":"20.972947"},{"name":"Tetovo","street1":"Tearce","city":"Tearce","zip":"1224","phone":"044\/ 381-001","workingperiod":"Monday-Friday: 07:00-14:00 - Saturday: 07:00-12:00","typepost":"Delivery office","latitude":"42.074925","longitude":"21.052254"},{"name":"Tetovo","street1":"Vratnica","city":"Vratnica","zip":"1225","phone":"044\/ 451-001","workingperiod":"Monday-Friday: 07:00-14:00 - Saturday: 07:00-12:00","typepost":"Delivery office","latitude":"42.14379","longitude":"21.115509"},{"name":"Tetovo","street1":"Zhelino","city":"Zhelino","zip":"1226","phone":"044\/ 378-001","workingperiod":"Monday-Friday: 07:00-14:00 - Saturday: 07:00-12:00","typepost":"Delivery office","latitude":"41.982535","longitude":"21.062316"},{"name":"Tetovo","street1":"Chelopek","city":"Chelopek","zip":"1227","phone":"044\/ 457-001","workingperiod":"Monday-Friday: 08:00-15:00 - Saturday: 08:00-13:00","typepost":"Delivery office","latitude":"41.925379","longitude":"21.019692"},{"name":"Tetovo","street1":"Shemshovo ","city":"Shemshovo","zip":"1228","phone":"044\/ 376-001","workingperiod":"Monday-Friday: 07:00-14:00 - Saturday: 07:00-12:00","typepost":"Delivery office","latitude":"42.024728","longitude":"21.079715"},{"name":"Shtip","street1":"Leski bb","city":"Shtip","zip":"2102","phone":"032\/ 387-102","workingperiod":"Monday-Friday: 07:00-13:30 - Saturday: 07:30-11:30","typepost":"Delivery office","latitude":"41.7587","longitude":"22.20405"},{"name":"Shtip","street1":"Krupishte","city":"Krupishte","zip":"2202","phone":"032\/ 307-331","workingperiod":"Monday-Friday: 07:30-14:15 - Saturday: 07:30-12:00","typepost":"Delivery office","latitude":"41.842171","longitude":"22.250525"},{"name":"Shtip","street1":"Tri Cheshmi","city":"Shtip","zip":"2205","phone":"032\/ 304-103","workingperiod":"Monday-Friday: 08:00-14:30 - Saturday: 08:00-14:30","typepost":"Delivery office","latitude":"41.772967","longitude":"22.133756"},{"name":"Shtip","street1":"Karbinci","city":"Karbinci","zip":"2207","phone":"032\/ 300-003","workingperiod":"Monday-Friday: 07:00-13:30 - Saturday: 07:00-11:30","typepost":"Delivery office","latitude":"41.817844","longitude":"22.232567"},{"name":"Skopje 1","street1":"blvd. Partizanski odredi 161","city":"Skopje - Gjorche Petrov","zip":"1060","phone":"02\/ 2031-481 ","workingperiod":"Monday-Friday: 07:00-20:00 - Saturday: 08:00-15:00","typepost":"Delivery office","latitude":"42.009477","longitude":"21.363992"},{"name":"Skopje 1","street1":"Nikola Rusinski bb","city":"Skopje-Karposh","zip":"1020","phone":"02\/ 3063-344","workingperiod":"Monday-Friday: 07:00-20:00 - Saturday: 08:00-15:00","typepost":"Delivery office","latitude":"42.004178","longitude":"21.395995"},{"name":"Skopje 1","street1":"Blagoja Stefkovski bb","city":"Skopje - Madjari","zip":"1040","phone":"02\/ 2522-172","workingperiod":"Monday-Friday: 07:00-20:00 - Saturday: 08:00-15:00","typepost":"Delivery office","latitude":"42.005004","longitude":"21.50443"},{"name":"Skopje 1","street1":"Janko Mishikj bb ","city":"Skopje - Drachevo","zip":"1050","phone":"02\/ 2792-070","workingperiod":"Monday-Friday: 07:00-20:00 - Saturday: 08:00-15:00","typepost":"Delivery office","latitude":"41.938594","longitude":"21.517169"},{"name":"Skopje 1","street1":"Krste Misirkov bb","city":"Skopje","zip":"1103","phone":"02\/ 3214-081","workingperiod":"Monday-Friday: 08:00-16:00","typepost":"Office of posting","latitude":"41.998385","longitude":"21.441219"},{"name":"Skopje 1","street1":"Ivan Kozarov No. 24","city":"Skopje","zip":"1104","phone":"02\/ 2772-123","workingperiod":"Monday-Friday: 07:00-20:00 - Saturday: 08:00-15:00","typepost":"Office of posting","latitude":"41.985192","longitude":"21.437846"},{"name":"Kavadarci","street1":"Jane Sandanski No.1","city":"Negotino","zip":"1440","phone":"043\/ 361-609","workingperiod":"Monday-Friday: 07:00-20:00 - Saturday: 07:00-20:00","typepost":"Delivery office","latitude":"41.483951","longitude":"22.090896"},{"name":"Skopje 1","street1":"Drezdenska No.19 lok.2","city":"Skopje","zip":"1105","phone":"02\/ 3064-055","workingperiod":"Monday-Friday: 09:00-17:00","typepost":"Office of posting","latitude":"41.999471","longitude":"21.405037"},{"name":"Skopje 1","street1":"Jani Lukrovski No.8","city":"Skopje","zip":"1108","phone":"02\/ 3171-509","workingperiod":"Monday-Friday: 07:00-20:00 - Saturday: 08:00-15:00","typepost":"Office of posting","latitude":"42.002713","longitude":"21.464711"},{"name":"Skopje 1","street1":"Shuto Orizari","city":"Shuto Orizari","zip":"1013","phone":"02\/ 2650-022","workingperiod":"Monday-Friday: 08:00-15:00 - Saturday: 08:00-13:00","typepost":"Office of posting","latitude":"42.041026","longitude":"21.422366"},{"name":"Skopje 1","street1":"Mito Hadjivasilev Jasmin bb","city":"Skopje","zip":"1114","phone":"02\/ 3215-760","workingperiod":"Monday-Friday: 07:00-20:00 - Saturday: 08:00-15:00","typepost":"Office of posting","latitude":"41.993653","longitude":"21.424321"},{"name":"Skopje 1","street1":"Petar Mandjukov bb","city":"Skopje","zip":"1115","phone":"02\/ 2612-846","workingperiod":"Monday-Friday: 09:00-17:00","typepost":"Office of posting","latitude":"42.032124","longitude":"21.444899"},{"name":"Skopje 1","street1":"blvd. Jane Sandanski 59","city":"Skopje","zip":"1126","phone":"02\/ 2455-842","workingperiod":"Monday-Friday: 07:00-20:00 - Saturday: 08:00-15:00","typepost":"Office of posting","latitude":"41.986467","longitude":"21.467013"},{"name":"Skopje 1","street1":"Drachevsk bb","city":"Skopje","zip":"1129","phone":"02\/ 2791-014","workingperiod":"Monday-Friday: 08:00-16:00","typepost":"Office of posting","latitude":"41.931473","longitude":"21.524921"},{"name":"Skopje 1","street1":"Naroden front No.19-A lok.18 (TC Beverli)","city":"Skopje","zip":"1131","phone":"02\/ 3132-010","workingperiod":"Monday-Friday: 09:00-17:00","typepost":"Office of posting","latitude":"41.993864","longitude":"21.416424"},{"name":"Skopje 1","street1":"blvd.Krste Misirkov bb","city":"Skopje","zip":"1132","phone":"02\/ 3127-397","workingperiod":"Monday-Friday: 07:00-20:00 - Saturday: 08:00-15:00","typepost":"Office of posting","latitude":"42.00245","longitude":"21.439419"},{"name":"Skopje 1","street1":"blvd. Vidoe Smilevski Bato No.37","city":"Skopje","zip":"1134","phone":"02\/ 2432-635","workingperiod":"Monday-Friday: 09:00-17:00","typepost":"Office of posting","latitude":"41.982722","longitude":"21.474901"},{"name":"Skopje 1","street1":"Londonska 19","city":"Skopje","zip":"1139","phone":"02\/ 3076-420","workingperiod":"Monday-Friday: 09:00-17:00","typepost":"Office of posting","latitude":"41.998547","longitude":"21.391772"},{"name":"Skopje 2","street1":"Nikola Karev No.22","city":"Skopje","zip":"1000","phone":"02\/ 2401-670","workingperiod":"Monday-Friday: 07:00-20:00 - Saturday: 08:00-16:00","typepost":"Delivery office","latitude":"41.992029","longitude":"21.446321"},{"name":"Kavadarci","street1":"Partizanska bb","city":"Rosoman","zip":"1422","phone":"043\/ 446-963","workingperiod":"Monday-Friday: 07:00-20:00 - Saturday: 07:00-20:00","typepost":"Delivery office","latitude":"41.515842","longitude":"21.944674"},{"name":"Kavadarci","street1":"Ilindenska 20","city":"Kavadarci","zip":"1430","phone":"043\/ 377-700","workingperiod":"Monday-Friday: 07:00-20:00 - Saturday: 07:00-20:00","typepost":"Delivery office","latitude":"41.434475","longitude":"22.011941"},{"name":"Kavadarci","street1":"Marshal Tito 19","city":"Demir Kapija","zip":"1442","phone":"043\/ 366-906","workingperiod":" Monday-Friday: 07:00-14:00 - Saturday: 07:00-12:00","typepost":"Delivery office","latitude":"41.409062","longitude":"22.243775"},{"name":"Strumica","street1":"11-ti Oktomvri bb","city":"Strumica","zip":"2401","phone":"034\/ 347-569","workingperiod":"Monday-Friday: 07:00-19:00 - Saturday: 07:00-19:00","typepost":"Office of posting","latitude":"41.4395779","longitude":"22.632452"},{"name":"Strumica","street1":"Leninova bb","city":"Strumica","zip":"2402","phone":"034\/ 347-403","workingperiod":"Monday-Friday: 07:00-19:00 - Saturday: 08:00-16:00","typepost":"Office of posting","latitude":"41.438622","longitude":"22.638286"},{"name":"Strumica","street1":"Ploshtad Sloboda","city":"Radovish","zip":"2420","phone":"032\/ 635-811","workingperiod":"Monday-Friday: 07:00-19:00 - Saturday: 07:00-19:00","typepost":"Delivery office","latitude":"41.639526","longitude":"22.462601"},{"name":"Strumica","street1":"Mosha Pijade No.9","city":"Valandovo","zip":"2460","phone":"034\/ 382-029","workingperiod":"Monday-Friday: 07:00-19:00 - Saturday: 07:00-19:00","typepost":"Delivery office","latitude":"41.316635","longitude":"22.561396"},{"name":"Bitola","street1":"Ruzveltova No.9","city":"Bitola","zip":"7000","phone":"047\/ 208-761","workingperiod":"Monday-Friday: 07:00-19:00 - Saturday: 07:00-19:00","typepost":"Delivery office","latitude":"41.029935","longitude":"21.33677"},{"name":"Bitola","street1":"Bezisten No.19, lok.3","city":"Bitola","zip":"7106","phone":"047\/ 212-526","workingperiod":"Monday-Friday: 07:00-19:00 - Saturday: 07:00-19:00","typepost":"Office of posting","latitude":"41.031899","longitude":"21.335003"},{"name":"Bitola","street1":"Marshal Tito 10-B","city":"Demir Hisar","zip":"7240","phone":"047\/ 212-543","workingperiod":" Monday-Friday: 07:00-14:00 - Saturday: 07:00-14:00","typepost":"Delivery office","latitude":"41.225236","longitude":"21.202704"},{"name":"Bitola","street1":"Tashe Miloshevski No.10-B","city":"Resen","zip":"7310","phone":"047\/ 451-013","workingperiod":"Monday-Friday: 07:00-19:00 - Saturday: 07:00-19:00","typepost":"Delivery office","latitude":"41.090434","longitude":"21.011653"},{"name":"Kumanovo","street1":"11-ti Oktomvri No.10","city":"Kumanovo","zip":"1300","phone":"031\/ 475-662","workingperiod":"Monday-Friday: 07:00-19:00 - Saturday: 07:00-19:00","typepost":"Delivery office","latitude":"42.137343","longitude":"21.715373"},{"name":"Kumanovo","street1":"120 No.5-A","city":"Kumanovo","zip":"1321","phone":"031\/ 444-444","workingperiod":"Monday-Friday: 07:00-14:00 - Saturday: 07:00-12:00","typepost":"Delivery office","latitude":"42.1533854","longitude":"21.7367972"},{"name":"Kumanovo","street1":" Sveti Joakim Osogovski No.144","city":"Kriva Palanka","zip":"1330","phone":"031\/ 375-002","workingperiod":"Monday-Friday: 07:00-19:00 - Saturday: 07:00-19:00","typepost":"Delivery office","latitude":"42.202682","longitude":"22.335281"},{"name":"Kumanovo","street1":"Brakja Miladinovci No.4","city":"Kratovo","zip":"1360","phone":"031\/ 481-325","workingperiod":"Monday-Friday: 07:00-19:30 - Saturday: 07:00-19:30","typepost":"Delivery office","latitude":"42.078748","longitude":"22.181898"},{"name":"Tetovo","street1":"Ilindenska bb","city":"Tetovo","zip":"1200","phone":"044\/ 356-560","workingperiod":"Monday-Friday: 07:00-19:00 - Saturday: 07:00-19:00","typepost":"Delivery office","latitude":"42.010613","longitude":"20.972833"},{"name":"Tetovo","street1":"Cvetan Dimov No.7","city":"Tetovo","zip":"1229","phone":"044\/ 334-032","workingperiod":"Monday-Friday: 07:00-19:00 - Saturday: 07:00-19:00","typepost":"Office of posting","latitude":"42.008796","longitude":"20.963509"},{"name":"Ohrid","street1":"Veljko Vlahovikj No.2","city":"Debar","zip":"1250","phone":"046\/ 831-045","workingperiod":" Monday-Friday: 07:00-19:00 - Saturday: 07:00-19:00","typepost":"Delivery office","latitude":"41.522979","longitude":"20.521699"},{"name":"Ohrid","street1":"Marko Cepenkov bb.","city":"Ohrid","zip":"6104","phone":"046\/ 231-410","workingperiod":"Monday-Friday: 07:00-19:00 - Saturday: 07:00-19:00","typepost":"Office of posting","latitude":"41.1175607","longitude":"20.81564"},{"name":"Ohrid","street1":"JNA No.25","city":"Struga","zip":"6330","phone":"046\/ 781-541","workingperiod":"Monday-Friday: 07:00-19:00 - Saturday: 07:00-19:00","typepost":"Delivery office","latitude":"41.178195","longitude":"20.680479"},{"name":"Veles","street1":"Blagoj Gjorev No.1","city":"Veles","zip":"1400","phone":"043\/ 214-406","workingperiod":"Monday-Friday: 07:00-19:00 - Saturday: 07:00-19:00","typepost":"Delivery office","latitude":"41.71767","longitude":"21.779811"},{"name":"Veles","street1":"11-ti Oktomvri bb","city":"Veles","zip":"1402","phone":"043\/ 234-624","workingperiod":"Monday-Friday: 07:00-19:00 - Saturday: 07:00-19:00","typepost":"Office of posting","latitude":"41.71489","longitude":"21.7672891"},{"name":"Veles","street1":" \u0420\u045a\u0420\u0455sha Pijade bb","city":"Veles","zip":"1401","phone":"043\/ 232-323","workingperiod":"Monday-Friday: 08:00-15:30","typepost":"Office of posting","latitude":"41.7218012","longitude":"21.7652784"},{"name":"Veles","street1":"8-mi Septemvri 36 ","city":"Gradsko","zip":"1420","phone":"043\/ 251-000","workingperiod":"Monday-Friday: 07:00-14:00 - Saturday: 07:00-11:30","typepost":"Delivery office","latitude":"41.5789351","longitude":"21.9439078"},{"name":"Prilep","street1":"Gjorche Petrov bb","city":"Prilep","zip":"7500","phone":"048\/ 404-311","workingperiod":"Monday-Friday: 07:00-19:00 - Saturday: 07:00-19:00","typepost":"Delivery office","latitude":"41.347325","longitude":"21.551993"},{"name":"Prilep","street1":"Ilindenska No.108","city":"Krushevo","zip":"7550","phone":"048\/ 404-325","workingperiod":"Monday-Friday: 07:00-19:00 - Saturday: 07:00-19:00","typepost":"Delivery office","latitude":"41.367966","longitude":"21.249318"},{"name":"Shtip","street1":"Engelsova bb","city":"Shtip","zip":"2000","phone":"032\/ 226-460","workingperiod":"Monday-Friday: 07:00-19:00 - Saturday: 07:00-19:00","typepost":"Delivery office","latitude":"41.744041","longitude":"22.191305"},{"name":"Shtip","street1":"Ploshtad Sloboda","city":"Shtip","zip":"2101","phone":"032\/ 392-030","workingperiod":"Monday-Friday: 07:00-19:00 - Saturday: 07:00-19:00","typepost":"Office of posting","latitude":"41.737637","longitude":"22.193236"},{"name":"Shtip","street1":"Jordan Stojanov bb","city":"Probishtip","zip":"2210","phone":"032\/ 482-222","workingperiod":"Monday-Friday: 07:00-19:00 - Saturday: 07:00-19:00","typepost":"Delivery office","latitude":"42.000213","longitude":"22.178189"},{"name":"Shtip","street1":"Ploshtad Ilinden bb","city":"Sveti Nikole","zip":"2220","phone":"032\/ 443-322","workingperiod":"Monday-Friday: 07:00-19:00 - Saturday: 07:00-19:00","typepost":"Delivery office","latitude":"41.864449","longitude":"21.941533"},{"name":"Gostivar","street1":"blvd. Brakja Gjinoski No.205","city":"Gostivar","zip":"1232","phone":"042\/ 214-019","workingperiod":"Monday-Friday: 08:00-15:00 - Saturday: 08:00-13:00","typepost":"Office of posting","latitude":"41.798894","longitude":"20.907072"},{"name":"Gostivar","street1":"Boris Kidrikj No.35","city":"Gostivar","zip":"1230","phone":"042\/ 214-224","workingperiod":"Monday-Friday: 07:00-19:00 - Saturday: 09:00-19:00","typepost":"Delivery office","latitude":"41.794626","longitude":"20.910615"},{"name":"Gevgelija","street1":"Marshal Tito No.22","city":"Gevgelija","zip":"1480","phone":"034\/ 210-057","workingperiod":"Monday-Friday: 07:00-20:00 - Saturday: 08:00-15:00","typepost":"Delivery office","latitude":"41.142648","longitude":"22.509551"},{"name":"Gevgelija","street1":"7-mi Noemvri No.2","city":"Gevgelija","zip":"1481","phone":"034\/ 213-292","workingperiod":"Monday-Friday: 07:00-20:00 - Saturday: 08:00-15:00","typepost":"Office of posting","latitude":"41.139751","longitude":"22.502735"},{"name":"Gevgelija","street1":"Bogorodica border crossing","city":"Bogorodica","zip":"1482","phone":"034\/ 230-120","workingperiod":"Monday-Sunday: 07:00-19:00","typepost":"Office of posting","latitude":"41.134702","longitude":"22.548398"},{"name":"Gevgelija","street1":"Marshal Tito No.113","city":"Bogdanci","zip":"1484","phone":"034\/ 221-016","workingperiod":"Monday-Friday: 07:00-20:00 - Saturday: 08:00-15:00","typepost":"Delivery office","latitude":"41.203558","longitude":"22.578264"},{"name":"Gevgelija","street1":"Vardarski rid No.2","city":"Gevgelija","zip":"1486","phone":"034\/ 218-987","workingperiod":"Monday-Friday: 07:00-16:00 - Saturday: 08:00-12:00","typepost":"Office of posting","latitude":"41.147012","longitude":"22.521267"},{"name":"Kochani","street1":"Marshal Tito No.54\/1","city":"Kochani","zip":"2300","phone":"033\/ 279-310","workingperiod":"Monday-Friday: 07:00-19:00 - Saturday: 07:00-19:00","typepost":"Delivery office","latitude":"41.91548","longitude":"22.411824"},{"name":"Kochani","street1":"Marshal Tito No.30","city":"Makedonska Kamenica","zip":"2304","phone":"033\/ 431-100","workingperiod":"Monday-Friday: 08:00-17:00 - Saturday: 08:00-17:00","typepost":"Delivery office","latitude":"42.02145","longitude":"22.589178"},{"name":"Kochani","street1":"Brakja Miladinovi No.16-A","city":"Vinica","zip":"2310","phone":"033\/ 362-311","workingperiod":"Monday-Friday: 07:00-19:00 - Saturday: 07:00-19:00","typepost":"Delivery office","latitude":"41.884362","longitude":"22.50393"},{"name":"Kochani","street1":"Metodija Mitevski - Brico No.3","city":"Delchevo","zip":"2320","phone":"033\/ 411-600","workingperiod":" Monday-Friday: 07:00-19:00 - Saturday: 07:00-19:00","typepost":"Delivery office","latitude":"41.965914","longitude":"22.774171"},{"name":"Kochani","street1":"Boris Kidrich No.6-3","city":"Pehchevo","zip":"2326","phone":"033\/ 441-300","workingperiod":"Monday-Friday: 07:00-19:00 - Saturday: 07:00-19:00","typepost":"Delivery office","latitude":"41.762111","longitude":"22.885114"},{"name":"Kochani","street1":"Marshal Tito 62","city":"Berovo","zip":"2330","phone":"033\/ 470-212","workingperiod":"Monday-Friday: 07:00-19:00 - Saturday: 07:00-19:00","typepost":"Delivery office","latitude":"41.70871","longitude":"22.855437"},{"name":"Kichevo","street1":" Marshal Tito bb","city":"Makedonski Brod","zip":"6530","phone":"045\/ 274-222","workingperiod":"Monday-Friday: 08:00-15:00 - Saturday: 08:00-13:00","typepost":"Delivery office","latitude":"41.507212","longitude":"21.219413"},{"name":"Skopje 1","street1":"1721 N\u0420\u0455.29","city":"Glumovo","zip":"1133","phone":"02\/ 2054-510","workingperiod":"Monday-Friday: 08:00-19:00 - Saturday: 08:00-14:00","typepost":"Office of posting","latitude":"41.989763","longitude":"21.31242"},{"name":"Skopje 1","street1":"Kej Dimitar Vlahov bb","city":"Skopje","zip":"1125","phone":"02\/ 3135-023","workingperiod":"Monday-Friday: 08:30-20:30","typepost":"Office of posting","latitude":"41.997059","longitude":"21.445446"},{"name":"Skopje 1","street1":"TIRZ Bunardjik","city":"Bunardjik","zip":"1135","phone":"02\/ 2570-939","workingperiod":"Monday-Friday: 09:00-16:00 - Saturday: 09:00-14:00","typepost":"Office of posting","latitude":"41.98668","longitude":"21.622613"},{"name":"Strumica","street1":" blvd. Marshal Tito No.22","city":"Strumica","zip":"2400","phone":"034\/ 335-110","workingperiod":"Monday-Friday: 07:00-19:00 - Saturday: 07:00-19:00","typepost":"Delivery office","latitude":"41.437252","longitude":"22.642498"},{"name":"Gostivar","street1":"18-ti Noemvri bb","city":"Gostivar","zip":"1240","phone":"042\/ 221-658","workingperiod":"Monday-Friday: 08:00-16:00","typepost":"Extension counter","latitude":"41.797208","longitude":"20.902559"},{"name":"Shtip","street1":"Sutjeska No.96","city":"Shtip","zip":"2103","phone":"032\/ 383-987","workingperiod":"Monday-Friday: 07:00-15:00","typepost":"Office of posting","latitude":"41.748664","longitude":"22.193854"},{"name":"Kichevo","street1":"Boris Kidrich No.1","city":"Kichevo","zip":"6250","phone":"045\/ 225-288","workingperiod":"Monday-Friday: 08:00-15:00 - Saturday: 08:00-13:00","typepost":"Extension counter","latitude":"41.508806","longitude":"20.958841"},{"name":"Ohrid","street1":"blvd. Makedonski prosvetiteli No.18","city":"Ohrid","zip":"6000","phone":"046\/ 273-166","workingperiod":"Monday-Friday: 08:00-16:00","typepost":"Extension counter","latitude":"41.113108","longitude":"20.800114"},{"name":"Kochani","street1":"blvd. Makedonija No.1k","city":"Delchevo","zip":"2321","phone":"033\/ 447-351","workingperiod":"Monday-Friday: 08:00-16:00","typepost":"Office of posting","latitude":"41.975043","longitude":"22.770096"},{"name":"Prilep","street1":"Kanatlarci","city":"Kanatlarci","zip":"7514","phone":"048\/ 404-332","workingperiod":"Monday-Saturday: 08:00-11:00","typepost":"Delivery office","latitude":"41.210342","longitude":"21.503206"},{"name":"Strumica","street1":"Mile Kolev No.6","city":"Strumica","zip":"2405","phone":"034\/ 364-208","workingperiod":"Monday-Friday: 08:00-15:00 - Saturday: 08:00-13:00","typepost":"Office of posting","latitude":"41.4408003","longitude":"22.6669174"},{"name":"Strumica","street1":"Kliment Ohridski No.47","city":"Strumica","zip":"2406","phone":"034\/ 345-073","workingperiod":"Monday-Friday: 08:00-15:00 - Saturday: 08:00-13:00","typepost":"Office of posting","latitude":"41.4453489","longitude":"22.6444633"},{"name":"Strumica","street1":"Svetozar Markovikj No.7","city":"Strumica","zip":"2400","phone":"034\/ 340-036","workingperiod":"Monday-Friday: 08:30-16:30","typepost":"Extension counter","latitude":"41.4357938","longitude":"22.6379498"},{"name":"Kochani","street1":"Marshal Tito No.4","city":"Berovo","zip":"2334","phone":"033\/277-969","workingperiod":"Monday-Friday: 08:00-16:00 -","typepost":"Office of posting","latitude":"41.714603","longitude":"22.85087"},{"name":"Kumanovo","street1":"Industriska No.1","city":"Kriva Palanka","zip":"1336","phone":"031\/410-428","workingperiod":"Monday-Friday: 08:00-15:00 - Saturday:08:00-13:00.","typepost":"Office of posting","latitude":"42.191481","longitude":"22.308118"},{"name":"Kavadarci","street1":"29 Noemvri No.36","city":"Kavadarci","zip":"1432","phone":"043\/361-033","workingperiod":"Monday-Friday: 08:00-15:00 - Saturday:08:00-13:00.","typepost":"Office of posting","latitude":"41.435289","longitude":"22.004137"},{"name":"Kumanovo","street1":"3-ta Makedonska udarna brigada No.2","city":"Kumanovo","zip":"1340","phone":"031\/464-285","workingperiod":"Monaday - Friday: 08.00-15.00 - Saturday:08.00-13.00.","typepost":"Office of posting","latitude":"42.135317","longitude":"21.701199"},{"name":"Tetovo","street1":"Skopski pat No.7","city":"Tetovo","zip":"1208","phone":"044 332 678","workingperiod":"Monday-Friday: 08:30-16:30","typepost":"Office of posting","latitude":"42.001982","longitude":"20.997512"},{"name":"Strumica","street1":"Industriska No.89","city":"Radovish","zip":"2422","phone":"032\/ 633-030","workingperiod":"Monday-Friday: 08:00-16:00 - Saturday:08:00-13:00.","typepost":"Office of posting","latitude":"41.627158","longitude":"22.454461"},{"name":"Skopje 1","street1":"16-ta Makedonska brigada No.2 - Skopje ","city":"Skopje","zip":"1123","phone":"02 3103-152","workingperiod":"Monday-Friday: 08:00-17:00 Saturday: 08:00-14:00","typepost":"Office of posting","latitude":"42.002365","longitude":"21.460228"},{"name":"Veles","street1":"Alekso Demnievski Bauman No.53","city":"Veles","zip":"1404","phone":"043\/ 210-556 - 078\/ 386-282","workingperiod":"Monday-Friday: 08:00-16:00","typepost":"Office of posting","latitude":"41.723947","longitude":"21.768634"},{"name":"Kavadarci","street1":"Shishka No.172","city":"Kavadarci","zip":"1433","phone":"043\/ 400-100","workingperiod":"Monday-Friday: 07:30-15:30","typepost":"Office of posting","latitude":"41.450181","longitude":"22.024122"},{"name":"Ohrid","street1":"Naum Ohrid\u0421\u0403\u0420\u0454\u0420\u0451 No. 1\u0420\u0452","city":"Peshtani","zip":"6323","phone":"046\/ 273-423","workingperiod":"Monday-Friday: 08:00-15:00 Saturday: 08:00-13:00","typepost":"Delivery office","latitude":"0","longitude":"0"}]